,name,address,city,country,latitude,longitude,revenue in USD
2518,Chichos,2820 Pacific Ave,Virginia Beach,US,36.85689,-75.979065,19147
8275,Papa Joe's Italian Restaurant,14459 S La Grange Rd,Orland Park,US,41.62616192,-87.85322740000001,18616
9357,Skippereno's,1604 W Grandview Blvd,Erie,US,42.08356203,-80.09611149,10548
1714,Pacific Ave Pizza,2001 W Pacific Ave,Spokane,US,47.655404,-117.441921,12855
2488,Eat Pizza,2037 SW Morrison St,Portland,US,45.5231,-122.693,11562
1310,Johnnys Pizza Cascade,5495 Cascade Rd SW,Atlanta,US,33.731675,-84.567002,16005
8616,La Pizzeria Italian,373 E Campbell Ave,Campbell,US,37.287175,-121.94331000000001,12504
607,Davannis Pizza and Hot Hoagies,8061 Flying Cloud Dr,Eden Prairie,US,44.857508,-93.42573399999999,19297
7721,Vincents Italian Restaurant,1004 Willis Ave,Albertson,US,40.77068239,-73.64815673,10231
2410,Frankie's East Side Pizza,313 Main St,Farmingdale,US,40.7323,-73.4457,15319
2115,Numero 28 Pizza,1431 1st Ave,New York,US,40.769293,-73.954966,14150
9833,Papa Dino's Pizza,290 Main St,Florence,US,38.99982,-84.62693,10537
8253,Petrinos Pizza,12719 Riley St,Holland,US,42.82705857,-86.09643502,10866
3559,Red Devil Pizza,1465 Foothill Blvd,La Verne,US,34.118235999999996,-117.77545500000001,15475
9615,Chicago's Pizza,12072 Blanco Rd,San Antonio,US,29.55166161,-98.511925,15471
8622,Joe's Pizza of the Village,349 5th Ave,Brooklyn,US,40.671802,-73.984187,17295
302,Guss New York Style Pizza,933 E University Dr,Tempe,US,33.421198,-111.925059,10918
887,Johnnys Pizza,9950 Jones Bridge Rd,Alpharetta,US,34.046952000000005,-84.226745,19858
1407,Luigis Pizza Parlor,3800 Stockton Blvd,Sacramento,US,38.540259999999996,-121.450414,18400
3157,Skipolini's Pizza,1535 Giammona Dr,Walnut Creek,US,37.9021,-122.0628,17869
3833,Lou Malnati's Pizzeria,1120 N State St,Chicago,US,41.90263,-87.62868,10418
7008,Grande's Pizzeria,1111 Floyd Ave,Rome,US,43.220332,-75.42530500000001,18540
9096,Magoo's Pizza,722 N Wendy Dr,Newbury Park,US,34.18754161,-118.9417219,18648
7991,Aroma House,1595 Bowis Dr,Point of Rocks,US,39.275632,-77.52932668,14238
8476,Patsy's Pizzeria,206 E 60th St,New York,US,40.761856,-73.965675,14775
1748,Joe Peeps Pizza,12460 Magnolia Blvd,Valley Village,US,34.164589,-118.40491999999999,17547
2944,Giuseppis Pizza,71 Lighthouse Rd,Hilton Head Island,US,32.131343,-80.80087900000001,12560
3387,Hometown Pizza,1960 Grand Ave Ste 1,West Des Moines,US,41.57221,-93.72944,12722
9465,Padington's Pizza,410 Pine St NE,Salem,US,44.96198,-123.02982,13685
622,Moon Dogs Pizza,2490 W State Route 89A,Sedona,US,34.863223,-111.803756,15182
3170,Little Sam's Pizza,3250 Greyling Dr,San Diego,US,32.8023,-117.1397,13445
3306,Chef Charles Pizza,147 River St,Elk Rapids,US,44.897985,-85.41386999999999,14023
50,Pizza Box,1253 Jacklin Rd,Milpitas,US,37.4478,-121.8878,10242
8235,Fratelli's Pizza,119 W Phoenix Ave,Flagstaff,US,35.196922,-111.65171000000001,17093
7018,My Pie,3928 Wadsworth Blvd,Wheat Ridge,US,39.772138,-105.08021699999999,12860
7344,Spinner's,14 Picotte Dr,Albany,US,42.651920000000004,-73.812352,10874
3236,Fat Tony's Pizza,4973 Diane Ave,San Diego,US,32.8357,-117.1869,19105
269,Carusos,1908 Fruitville Pike,Lancaster,US,40.074518,-76.321617,15043
8615,Riverfront Pizza + Speciality,6281 Western Ave,Glen Arbor,US,44.89760147,-85.98467231,14115
1881,Rooftop Pizza,60 E San Francisco St,Santa Fe,US,35.6865,-105.939325,14078
9958,Sainato's Restaurant,1861 Columbus Rd,Cleveland,US,41.48918574,-81.70059467,18251
2068,Skinny Pizza,211 Mineola Ave,Roslyn Heights,US,40.7859,-73.649,13287
731,Grand Avenue Pizza,3424 30th Ave,Astoria,US,40.765322999999995,-73.918233,12995
7684,Pizzeria Di Giovanni,40 N Market St,Charleston,US,32.781387,-79.92845200000001,17290
8369,Three Brothers Italian Restaurant,13600 Baltimore Ave,Laurel,US,39.07762549,-76.8706727,14237
3669,Vinny's Pizza,835 Glenside Ave,Wyncote,US,40.097774,-75.14542800000001,12042
4032,Mamma Rosa Italian Restaurant,1773 E Main St,El Cajon,US,32.814054999999996,-116.91654299999999,17013
388,Pyramid Pizza,1029 Massachusetts St,Lawrence,US,38.9651,-95.236,15492
9226,Falco's,2806 W 40th Pl,Chicago,US,41.820146,-87.69470172,16957
4029,China Inn Fine Chinese Cuisine,8100 Highway 6 N,Houston,US,29.902158,-95.635601,18043
77,Sherrill New York Pizzeria,121 E Seneca St,Sherrill,US,43.076696000000005,-75.597597,11296
8422,Sugo Osteria,12505 Park Potomac Ave,Potomac,US,39.06036302,-77.15697858,13686
1587,Red West Pizza,2119 Pacific Coast Hwy,Lomita,US,33.790161,-118.318045,18278
7781,Atlas Pizza,104 Main St SW,Gainesville,US,34.299713,-83.82696800000001,12891
8197,Rosselli's Pizza,1667 Ooltewah Ringgold Rd,Ooltewah,US,34.99892556,-85.09614944,13837
205,Krazy Karls Pizza,1124 W Elizabeth St,Fort Collins,US,40.575047999999995,-105.09718400000001,15896
6387,Stone Neapolitan Pizzeria,300 Liberty Ave,Pittsburgh,US,40.440551,-80.006183,16943
8428,Canta Napoli Pizzeria & Ristorante,90 E Busse Ave,Mount Prospect,US,42.06443682,-87.93555074,14678
967,Station Pizza Deli,1531 W Mission Rd,San Marcos,US,33.150886,-117.193875,18144
604,J V Pizzeria,6316 18th Ave,Brooklyn,US,40.619841,-73.98953900000001,16797
2466,Dor Lo Pizza,1211 Orange Rd,Ashland,US,40.8786,-82.3124,16142
9027,Northside Nathan's Pizza,7531 W Lake Mead Blvd,Las Vegas,US,36.19568716,-115.25832849999999,10177
9024,Rocky Rococo Pan Style Pizza - Campus/Downtown,1301 Regent St,Madison,US,43.06749,-89.40765,12063
368,Marietta Pizza Company,3901 Mary Eliza Trace,Marietta,US,33.966885999999995,-84.665362,16808
7026,Spiro's Pizza Pasta - West Seattle,3401 California Ave SW,Seattle,US,47.573744,-122.386958,19484
3695,Backstreet,1949 W County Road 419,Oviedo,US,28.65137253,-81.15728784,12785
3348,PIZZA MACHINE,1610 W Redondo Beach Blvd,Gardena,US,33.8886,-118.3042,19804
5724,The Red Star Pizza Company,1515 E Tipton St,Seymour,US,38.959601,-85.864665,11050
8717,Jethroni Pepperoni,3221 Adventureland Dr,Altoona,US,41.65891,-93.49731,13309
3919,Divino's Pizza,4201 Gaston Ave Ste 104,Dallas,US,32.795178,-96.776294,11756
296,Maurizios Pizza and Pasta Bowl,1107 Olive St,Saint Louis,US,38.628915,-90.19574899999999,12859
2647,Protos PizzaDenver,2401 15th St,Denver,US,39.756797,-105.00893700000002,11431
202,SLV Pizza Company,1210 8th St,Alamosa,US,37.464259999999996,-105.87438700000001,13442
814,Piesanos Pacchia,3618 Canyon Lake Dr,Rapid City,US,44.070654,-103.27996,11173
9735,Stella's II Pizzeria & Restaurant,273 S Wellwood Ave,Lindenhurst,US,40.684638,-73.371061,14769
8673,Paisano's Pizza,1270 Holden Ave,Orlando,US,28.49433119,-81.39615292,11474
5064,Bricks Neapolitan Pizza,407 2nd St,Hudson,US,44.974094,-92.757116,15548
9041,Mio's,402 N Broadway St,Lebanon,US,39.43948825,-84.20748128,19467
3388,Samuel Mancino's Italian Eatery,4304 Lincolnway E,Mishawaka,US,41.663540000000005,-86.11193,15055
3029,Sky Bar Gourmet Pizzeria,75 Prospect Ave,Eureka Springs,US,36.408342,-93.737399,11713
1121,Lubos New York Pizza,15352 E Ida Dr Unit H,Aurora,US,39.611571999999995,-104.809421,12468
2936,All American Pizza,7101 NW Expressway,Oklahoma City,US,35.560356,-97.638924,14824
8279,Grassano's,5651 W 87th St,Oak Lawn,US,41.73383061,-87.76301187,11254
8757,Talarico's,4718 California Ave SW,Seattle,US,47.560501,-122.3864,16161
1882,Grandads Pizza,1254 W 3rd Ave,Columbus,US,39.984888,-83.03912199999999,17452
7876,Albert's Pizza Shop,1642 Great Neck Rd,Copiague,US,40.679253,-73.399055,18841
1434,Amante Pizza,1525 E Olive Way,Seattle,US,47.61845,-122.32553600000001,17874
2446,Caliente Pizza Hampton,4706 William Flynn Hwy,Allison Park,US,40.593927,-79.94703100000001,14349
2967,Eastern Style Pizza,2911 W Touhy Ave,Chicago,US,42.012014,-87.702555,14085
1238,Bellacinos Grinders Pizza,2320 Tiffin Ave Ste B,Findlay,US,41.057089000000005,-83.59662,18105
5201,Astoria's Pizza Pasta,4629 168th St SW,Lynnwood,US,47.846762,-122.296074,13469
3498,Milano Pizzeria,901 Atlantic Ave,Ocean City,US,38.3405,-75.0806,17000
8207,Mancino's,1606 S Scatterfield Rd,Anderson,US,40.100304,-85.65148,18342
6080,Casa Mia Italian Restaurant and Pizzeria,134 Prarie Park,Yelm,US,46.939133,-122.599708,18005
7467,Coccia House,764 Pittsburg Ave,Wooster,US,40.798268,-81.929262,17250
92,Pizzaburg,90 S Main St,Johnstown,US,40.152074,-82.68329,14382
125,Famas Ristorante,5474 Central Florida Pkwy,Orlando,US,28.407027000000003,-81.45003,14377
8777,Famous Pizza & Sub Shoppe,6689 Maddox Blvd,Chincoteague Island,US,37.927836,-75.35564000000001,12697
9167,Bellacino's Pizza & Grinders,166 W Maple Rd,Troy,US,42.54842,-83.14925,18548
569,LaRosas Pizzeria Mt Zion,280 Mount Zion Rd,Florence,US,38.956832,-84.626501,14132
9358,Gondolier Italian Restaurant & Pizza,544 E Broadway Blvd,Jefferson City,US,36.12602386,-83.47029153,10502
8305,Pizza Love,3407 Montrose Blvd,Houston,US,29.742009999999997,-95.39125,10360
8105,Mombo's Pizza,1880 Mendocino Ave,Santa Rosa,US,38.45832,-122.7168,17235
3876,Fini's Pizzeria,1032 Old Peachtree Rd NW,Lawrenceville,US,33.998778,-84.069514,13856
1099,Jaspares Pizza Fine Italian Food,6050 Gull Rd,Kalamazoo,US,42.320011,-85.52716,12739
2285,Credos PizzaRibs Beer,150 Western Blvd,Jacksonville,US,34.748152000000005,-77.37930899999999,12504
9125,Angelo's Cucina e Pizzeria,300 S Public Rd,Lafayette,US,39.99624,-105.09043999999999,10186
1967,Wolfman Pizza,106 S Sharon Amity Rd,Charlotte,US,35.176051,-80.799612,17356
3697,Pagosa Peaks Pizza,10 Solomon Dr,Pagosa Springs,US,37.267959999999995,-107.05386999999999,13545
262,Adagios Lounge,2052 Silver Lake Rd NW,Saint Paul,US,45.084414,-93.21945600000001,19463
3425,Glass Nickel Pizza,2407 Jackson St,Oshkosh,US,44.0464,-88.5428,15848
1331,Pizzeria Del Dio,3210 E Colonial Dr,Orlando,US,28.552024,-81.3433,11435
7265,Pizza Joint,2900 N Mesa St,El Paso,US,31.779075,-106.504225,13887
5836,Harris Pizza #1,3903 14th Ave,Rock Island,US,41.497507,-90.546189,10503
8407,A Dough Re Mi,2700 N Highway 17,Mount Pleasant,US,32.85493178,-79.80395794,10857
9968,La Mia Pizza,1488 1st Ave,New York,US,40.77126,-73.953125,19956
5606,Luigi's Pizzeria,326 Dekalb Ave,Brooklyn,US,40.689665000000005,-73.96545400000001,17249
766,Infernos Brick Oven Pizza,8825 Tallon Ln NE Ste I,Olympia,US,47.059424,-122.75276799999999,13106
419,Romanos Family Italian Restaurant,5225 Canyon Crest Dr,Riverside,US,33.956641,-117.33173300000001,13283
2402,Tony's Pizza & Restaurant,161 Clarke St,Brentwood,US,40.7993,-73.2488,17006
3620,Pizza Nova,558 W 43rd St,Chicago,US,41.81637,-87.63956,14346
977,Pitfire Artisan Pizza,353 E 17th St,Costa Mesa,US,33.631669,-117.91376100000001,11429
8500,Amore Pizzeria & Pasta,575 Main St,Armonk,US,41.13186316,-73.71264857,11701
780,Sicilianos,974 E Main St,Ravenna,US,41.157029,-81.22710500000001,12281
5901,Scarr's Pizza,22 Orchard St,New York,US,40.715343,-73.99139,16492
6759,Westshore Pizza,5228 S Dale Mabry Hwy,Tampa,US,27.888697999999998,-82.506289,11726
1304,Mulberry Street,30 E Main St,Babylon,US,40.696366,-73.322425,18839
3622,Bellacinos,29101 Northwestern Hwy,Southfield,US,42.50076,-83.31020799999999,14356
6411,Lucky 13 Pizzeria,2517 Spring Rd SE,Smyrna,US,33.883194,-84.48074100000001,18909
9602,Naty's Pizza,1757 W Chicago Ave,Chicago,US,41.895775,-87.671906,16937
9601,Villa Pizzeria,124 3rd Ave,Jasper,US,38.3886,-86.92775999999999,16923
8319,Roberta's Pizza,261 Moore St,Brooklyn,US,40.70508,-73.93359,11400
1560,Jacks Pizza,1948 E Lincoln Hwy,Coatesville,US,39.989036999999996,-75.786679,13034
1187,Marcos Pizza,425 Buford Highway NW,Suwanee,US,34.054862,-84.067817,18329
8307,Big Woody's Pizza,702 Hanover Ave,Allentown,US,40.61521,-75.44467,10877
5277,Mikey's Late Night Slice,15 E Duncan St,Columbus,US,40.015651,-83.011279,11857
844,Mineos Wings Pizza Raw Bar,330 Mayfield Dr,Franklin,US,35.954553999999995,-86.80291700000001,16888
4457,Pizza In The Square,750 Central Park Ave,Yonkers,US,40.92573,-73.85606,15900
7090,Armand's Pizzaria,6694 N Northwest Hwy,Chicago,US,42.002694,-87.816091,14509
3375,Cassanos,1200 Brown St Ste 110,Dayton,US,39.741924,-84.182385,16325
1045,Pies On Pizza and Pasta,375 Lanier Ave E,Fayetteville,US,33.45037,-84.437949,14591
1355,iPizzaNY,707 9th Ave,New York,US,40.7625,-73.98963499999999,19717
9278,Donatos Pizza,920 N High St,Columbus,US,39.981262,-83.00408,11812
274,Peppinos Pizzeria,384 College Ave,Clemson,US,34.684486,-82.836888,12193
1994,Conans Pizza South,2018 W Stassney Ln,Austin,US,30.216245,-97.798303,17666
160,Romanos Chicago Pizzeria,285 E Alessandro Blvd,Riverside,US,33.915287,-117.32883700000001,19441
579,LaScalas,1701 John F Kennedy Blvd,Philadelphia,US,39.954332,-75.168705,14421
8023,Evviva Woodfired Pizza,178 Sunset Ave,Edmonds,US,47.812490000000004,-122.38166000000001,19764
5816,The Loop Pizza Grill,550 Wells Rd,Orange Park,US,30.185377000000003,-81.705359,16312
366,Papa Vito's Pizza,223 W Mill St,Waterloo,US,38.3358,-90.1531,12040
8276,Frankie & Louie's,414 Willett Ave,Port Chester,US,41.00844325,-73.66136715,17195
637,Petes Pizzeria 2,5847 W Montrose Ave,Chicago,US,41.960334,-87.773985,15974
3446,Parma Pizza,600 Heritage Dr Ste 101,Pottstown,US,40.245020000000004,-75.60125,11404
3374,Broadway Bobbys,677 Ridge Rd,Buffalo,US,42.825635999999996,-78.826461,10543
1062,Ginos of Long Beach,16 W Park Ave,Long Beach,US,40.58842,-73.664602,17872
3317,Brooklyn Pizza,912 N Spence Ave,Goldsboro,US,35.385068,-77.946232,13079
9245,Primos Chicago Pizza Pasta and Subs,816 W Van Buren St,Chicago,US,41.87677029,-87.64841847,19865
8208,Benito's Cafe,24270 Novi Rd,Novi,US,42.46747588,-83.47447976,16425
8387,Aromas Pizza,350 Saint Peter St,Saint Paul,US,44.94469579,-93.0951249,14910
5132,Zoey's Pizza,690 10th St,Marion,US,42.033134000000004,-91.599388,15359
8617,Sammy's Woodfired Pizza & Grill,12925 El Camino Real,San Diego,US,32.95234633,-117.23253249999999,11297
6884,Raffaele's Pizza,7019 N 19th Ave,Phoenix,US,33.539646999999995,-112.099597,13986
1430,Ginas Pizza,4533 Campus Dr,Irvine,US,33.649821,-117.83201100000001,12332
784,Peppinos Pizza,190 E Whitehall Rd.,Athens,US,33.898491,-83.36545699999999,19710
1,Sauce Pizza Wine,25 E Camelback Rd,Phoenix,US,33.509266,-112.073044,10735
3105,Danielle's Pizza City,5882 S Ridgewood Ave,Port Orange,US,29.1084,-80.9733,19435
289,Elegante Market,9901 Hawaiian Ct,Orlando,US,28.423717,-81.462497,12948
867,Lake Tahoe Pizza Company,1168 Emerald Bay Rd,South Lake Tahoe,US,38.907755,-120.001779,18983
8508,Brick Oven Pizza 33,268 W 23rd St,New York,US,40.74525473,-73.99818524,16984
658,Allstar Pizza,2345 Street Rd,Bensalem,US,40.105094,-74.94951,19305
2616,Westshore,1346 Tampa Rd,Palm Harbor,US,28.06737,-82.76313,14469
9179,Pequod's Pizzeria,8520 Fernald Ave,Morton Grove,US,42.03621622,-87.78262600000001,10963
3785,Two Guys Pizzeria,2250 W Holcombe Blvd,Houston,US,29.706558,-95.411529,18570
2258,Fun House Pizza Pub,13002 U.S. 40,Independence,US,39.03747,-94.426209,14630
1910,Brooklyn Boys Italian Restaurant,20800 N John Wayne Pkwy Ste 118,Maricopa,US,33.068796,-112.047192,17004
627,Rustys Pizza Parlor,270 Storke Rd,Goleta,US,34.428958,-119.86946699999999,16103
8199,A & J Pizza,7137 Austin St,Forest Hills,US,40.7198,-73.84328000000001,11420
900,Greek Tonys Pizza Sub Shop,438 Sawdust Rd,Spring,US,30.127813,-95.448983,10020
365,Pizza On 87,1368 N Arizona Ave Ste 101,Chandler,US,33.327123,-111.842775,19040
4007,Verrazano Pizza,9102 4th Ave,Brooklyn,US,40.619143,-74.02999799999999,18919
3560,University Pizza,5008 Colley Ave,Norfolk,US,36.888756,-76.295135,19495
8404,Papa Murphy's - Murray Blvd,6111 SW Murray Blvd,Beaverton,US,45.475564,-122.82699699999999,17432
1419,Cenzos Pizzeria,1619 Darby Rd,Havertown,US,39.981706,-75.30534,12028
7133,Rossi's Pizza,332 Oak Hill Ave,Endicott,US,42.114739,-76.05023,14999
9827,The Original Graziano's,7426 Cherry Ave,Fontana,US,34.11957672,-117.4894774,13681
7041,Garbo's Pizzeria Chesterfield Villiage,2101 W Chesterfield Blvd,Springfield,US,37.146147,-93.321647,14124
2685,Geppetos Pizza and More,114 N College Ave,Newton,US,35.66397,-81.22126999999999,15854
7040,Bibo's NY Pizza,1431 Bird Ave,San Jose,US,37.320060999999995,-121.898127,16978
573,Barlos Pizzeria,1345 W Southport Rd,Indianapolis,US,39.663295,-86.18391,15980
1324,Scooters Cafe,322 Culver St.,Saugatuck,US,42.654982000000004,-86.202475,11219
150,East Broadway Pizza,181 E Broadway,New York,US,40.714197,-73.989389,14074
8477,Flippin' Pizza Annandale,6544 Little River Tpke,Alexandria,US,38.82250892,-77.16075872,13316
3524,Nicks Pizza,137 NE 2nd Ave,Deerfield Beach,US,26.3198,-80.0999,16284
9042,Celestino's New York Pizza,101 Salem St,Chico,US,39.72965,-121.84286000000002,17063
3593,Pizza Chef,564 W 235th St,Bronx,US,40.88564,-73.91024499999999,12756
9985,Wood and Fire,59 Marble Ave,Pleasantville,US,41.131494,-73.790872,17100
4134,Grimaldi's,656 Avenue Of The Americas,New York,US,40.741064,-73.993944,16388
1864,Cosmos Pizzeria,110 Corolla Light Town Center,Corolla,US,36.373501,-75.82795,14401
3246,Aver's Pizza North/campus,1837 N Kinser Pike,Bloomington,US,39.1873,-86.5377,19155
7922,The Pizza House,954 B St,Hayward,US,37.672714,-122.0834,19423
2926,Mia Margherita,139 Conference Center Way,Bridgeport,US,39.323648999999996,-80.23113599999999,13180
2465,Guys Pizza,146 S Water St,Kent,US,41.153,-81.3584,15522
7200,Town Pizza,5101 York Blvd,Los Angeles,US,34.121266999999996,-118.20459,12201
4026,Penora's Pizza,5055 Broadway,Depew,US,42.90155,-78.68768299999999,14583
3561,Pizza Autentica,2450 Crystal Dr,Arlington,US,38.851841,-77.049902,17776
8820,Veltre's Pizza & Sandwiches,848 Allegheny River Blvd,Oakmont,US,40.52513295,-79.84069547,11522
4093,Davincis Pizzeria,3337 Sutherland Ave,Knoxville,US,35.949725,-83.97355999999999,17543
161,Redendos Pizzeria,16948 E Shea Blvd,Fountain Hills,US,33.574011,-111.713952,18005
9563,Maxie's Pizza,170 Blue Lakes Blvd,Twin Falls,US,42.54979861,-114.4600283,12145
2798,Uncle Vinneys Pizza,1560 S Stanford Way,Sparks,US,39.520742999999996,-119.74078,12599
9749,Bob's Tu Your Door Pizza,3653 Carson Ave,Indianapolis,US,39.71215533,-86.12547398,15365
3449,Manolo's Pizza & Empanadas,1115 W Oregon St,Urbana,US,40.107,-88.2235,12082
2809,LaRosas Pizzeria Alexandria,4757 Alexandria Pike,Newport,US,38.963214,-84.393288,17900
1497,Pizza Bob's,814 S State St,Ann Arbor,US,42.2715,-83.7407,12851
2326,Carlo's Pizza,7001 N Route 309,Coopersburg,US,40.5167,-75.3864,13541
8383,Marina's Pizza,12121 W Linebaugh Ave,Tampa,US,28.05645858,-82.62423635,15458
2515,Picnic Pizza,2898 Westington Rd,Horseheads,US,42.176444000000004,-76.836292,12872
1383,Big Slice Pizza,4310 Vance Jackson Rd,San Antonio,US,29.513039000000003,-98.534918,15822
1555,Romeos New York Pizza,139 S Clayton St,Lawrenceville,US,33.94905,-83.987821,14983
465,Romans Pizzeria,391 N Royal Poinciana Blvd,Miami,US,25.826304999999998,-80.287501,14030
8212,Tommy J's Pizza Cafe,1000 W 3rd St,Anderson,US,40.11294532,-85.69191858,12971
1272,Joeys Northside Pizzeria,200 Oak Hill Ave,Endicott,US,42.111057,-76.05014399999999,12763
9097,Durbins Of Frankfort,14 Elwood St,Frankfort,US,41.49908154,-87.84995645,11890
3445,Pizza Time,133 S Main St,Ottawa,US,38.615476,-95.268569,12833
8198,LAMP Pizzeria,8900 E Pinnacle Peak Rd,Scottsdale,US,33.70006249,-111.8886217,16092
1186,Prima Pizza,3651 E Baseline Rd,Gilbert,US,33.3777,-111.753371,19670
9901,Slice of Life Pizzeria,188 Mariner Blvd,Spring Hill,US,28.4360919,-82.54755772,14560
7810,Mr. Scribs (Apple Ave.),6826 E Apple Ave,Muskegon,US,43.23524318,-86.07675970000001,10378
8368,Elliott Bay Pizza & Pub,800 164th St SE,Bothell,US,47.849423,-122.22049399999999,12083
3151,Rocky Rococo Panstyle Pizza,40 Copeland Ave,La Crosse,US,43.8224,-91.2486,17238
9141,Two Boots Hell's Kitchen,625 9th Ave,New York,US,40.759840000000004,-73.9916,16359
7128,LaRosa's Pizzeria Miami Heights,3785 Shady Ln,North Bend,US,39.164,-84.6991,17786
8647,Santucci's Square Pizza,901 S 10th St,Philadelphia,US,39.9391921,-75.15932351,17913
1783,Antonio's Pizza House,678 W Chestnut St,Lancaster,US,40.0395,-76.3208,11446
9353,Campelli's Pizza,7480 Foothills Blvd,Roseville,US,38.77131,-121.31338000000001,15020
1989,Brooklyn Pie Co,8127 Mesa Dr Ste B202,Austin,US,30.372875,-97.755813,14144
2108,Pie In The Sky Pizza,320 S Tryon St,Charlotte,US,35.2257,-80.8464,12215
3621,Your Place Restaurant Pub,1077 W Governor Rd,Hershey,US,40.268162,-76.678916,19670
2727,Pizza Show,13344 Hawthorne Blvd,Hawthorne,US,33.911181,-118.35221299999999,10297
2473,Pizza Land,19 Park Pl,Avon,US,42.9112,-77.7458,15723
1711,Kelsos Pizza Northtown,300 Armour Rd,Kansas City,US,39.142075,-94.577129,17039
4107,Tony Maronis Famous Gourmet Pizza,11645 Wilshire Blvd,Los Angeles,US,34.050171999999996,-118.460029,16569
9170,JT's Pizza & Pub,2390 W Dublin Granville Rd,Columbus,US,40.09033025,-83.0534091,17906
9548,Will's Pizza,11 W Church St,Oxford,US,39.51141,-84.7429,16728
8064,Westshore Pizza XIV,1969 Drew St,Clearwater,US,27.967701799999997,-82.75553584,11217
8283,Esposito's,18 Broadway,Valhalla,US,41.07375,-73.77243,16538
8776,Little Joe's Pizza,1300 N Cedar Rd,New Lenox,US,41.52983761,-87.96601998,18531
5908,Jagger's,1799 Briarcliff Rd NE,Atlanta,US,33.804337,-84.337758,14114
8750,Papa Severio's Pizzeria,1480 N Orchard Rd,Aurora,US,41.78612314,-88.37618748,19188
7610,Nino's Pizza,25 E Main St,Oyster Bay,US,40.872176,-73.529788,10956
2342,Marks Pizzeria,6181 Mckee St,Newfane,US,43.276,-78.6983,11450
9169,Fox & Hound,6051 SW Loop 820,Fort Worth,US,32.68152044,-97.41557985,11852
8271,Love At First Slice,36601 Newark Blvd,Newark,US,37.538795,-122.03406499999998,18199
3144,That Pizza Place,2622 El Camino Real Ste B,Carlsbad,US,33.1759,-117.3258,10871
4586,Luigi's,1524 Valley Dr,Syracuse,US,43.002765999999994,-76.153465,14535
9446,Cagney's Pizza King,33 E Broadway St,Shelbyville,US,39.52263,-85.77574,14915
9828,Gates' Pontillo's Pizzeria,777 Spencerport Rd,Rochester,US,43.17134369,-77.71102786,17229
3126,Bearno's By The Bridge,131 W Main St,Louisville,US,38.2566,-85.75299999999999,13208
1091,Savage Land,700 S Dishman Rd,Spokane,US,47.65045,-117.28043999999998,17921
3696,Katonah Pizza & Pasta,4307 Katonah Ave,Bronx,US,40.898674,-73.86765,18656
8751,Marys Pizza And Pasta,876 Connetquot Ave,Islip Terrace,US,40.76633264,-73.17540127,16368
492,Caps Island Grille,10999 S Ocean Dr,Jensen Beach,US,27.264124,-80.202568,10140
3112,Monty's Pizza,8386 Market St,Bradenton,US,27.3903,-82.4433,19828
9759,Buzzard's Pizza,4745 NW Hunters Ridge Cir,Topeka,US,39.13198,-95.7167,17892
9969,Mama Tinas Pizza,2649 Frederick Douglass Blvd,New York,US,40.820705,-73.94386999999999,18339
1837,Fellini's Pizza,909 Ponce De Leon Ave Ne,Atlanta,US,33.773654,-84.357596,13590
3398,Lucianos Family Pizzeria,8603 State Highway 151,San Antonio,US,29.438615999999996,-98.655683,16317
3589,Slices N Ices,208 Beach 116th St,Rockaway Park,US,40.580076,-73.837317,14646
1880,Brickhouse Sauce Dough Co,107 N Buxton St,Indianola,US,41.360583,-93.562353,18070
3533,Park Avenue Pizza,119 E Lyman Ave,Winter Park,US,28.5951,-81.3505,17934
406,Dumms Pizza,4704 Riverdale Rd,Riverdale,US,38.962046,-76.93484000000001,16211
9900,Rovente Pizza,512 SW 4th Ave,Portland,US,45.51944,-122.67568999999999,19233
1295,Buddys Pizzeria,32218 Woodward Ave,Royal Oak,US,42.526497,-83.194039,15185
7108,Irving Street Pizza,1825 Irving St,San Francisco,US,37.763575,-122.47755900000001,11688
2900,Rockys Pizza Panini,3032 Bardstown Road,Louisville,US,38.213448,-85.674136,17079
1217,Gioia Pizzeria,2240 Polk St,San Francisco,US,37.797457,-122.422083,11514
4817,Paisano's Pizza Grill,1798 Ashley Road,Charleston,US,32.802518,-80.01702,12803
2207,Memphis Pizza Cafe,5627 Getwell Rd,Southaven,US,34.942921000000005,-89.937269,18820
750,Gruppo,98 Avenue B,New York,US,40.724745,-73.981486,19715
464,Ultimate California Pizza,1502 Highway 17 N,Myrtle Beach,US,33.623753,-78.970276,18104
806,Punch Neapolitan Pizza,8310 City Centre Dr.,Saint Paul,US,44.920463,-92.93805400000001,16202
100,Pomo,8977 N Scottsdale Rd,Paradise Valley,US,33.566876,-111.92536100000001,11084
335,Francos Tomato Pies,175 S Main St,Morrisville,US,40.236428000000004,-74.83164000000001,18145
1067,Accu Pizza,4802 Spruce St,Philadelphia,US,39.953614,-75.21834100000001,14658
9818,New York Pizza and Subs,708 Hardy Rd,Vinton,US,37.27348243,-79.89164484,18311
8901,Palermo Pizza,749 36th St SW,Wyoming,US,42.89895603,-85.68416433,16236
5590,Dough Pizzeria Napoletana,6989 Blanco Rd,San Antonio,US,29.519416999999997,-98.506851,11829
3028,Luke n Ollies Pizzeria,1101-C Ocean Blvd.,Isle of Palms,US,32.785647999999995,-79.78862099999999,11222
295,Shields Pizza,50750 Romeo Plank Rd,Macomb,US,42.670278,-82.939613,10334
3675,Little Italy Pizza & Deli,180 Varick St,New York,US,40.727203,-74.005386,17157
8342,Napolese Artisanal Pizzeria,30 S Meridian St,Indianapolis,US,39.7662565,-86.15818333,18153
558,Big Daddys Pizza,7669 S 700 E,Midvale,US,40.611632,-111.87116999999999,11425
1861,Santinos,368 Gulf Breeze Pkwy,Gulf Breeze,US,30.36607,-87.171229,17998
8598,Guido's Premium Pizza,3999 Centerpoint Pkwy,Pontiac,US,42.6066,-83.24873000000001,17282
8888,Polo norte,2050 W 56th St,Hialeah,US,25.872626999999998,-80.32496,10545
4061,Rome Italian Pizza,2100 N Main St,High Point,US,35.983053999999996,-80.022826,10575
421,Luciano Express Rivercenter Mall,849 E Commerce St Ste 157,San Antonio,US,29.42357,-98.484701,15312
8954,Mike's Pizza & Subs,6785 Whitneyville Ave SE,Alto,US,42.842372,-85.459362,18065
9517,Chicago's Gourmet Pizza,8308 Preston Rd,Plano,US,33.09137035,-96.80370489,11047
344,Tarantos Pizzeria,1282 E Powell Rd,Lewis Center,US,40.156197999999996,-83.001083,12803
348,Tonys Brick Oven Pizzeria,2417 14th,Gulfport,US,30.368069000000002,-89.092309,19769
5591,Shakespeare's Pizza,3911 Peachtree Dr,Columbia,US,38.90672,-92.33765,16372
581,Grimaldis,24202 61st Ave,Little Neck,US,40.75432,-73.739834,10890
9680,Giovanni's,1187 Coast Village Rd,Santa Barbara,US,34.42067,-119.64497,16467
4933,Gialina Pizzeria,2842 Diamond St,San Francisco,US,37.733961,-122.43406,18605
8234,Villa Nova Pizza,6821 Pershing Rd,Berwyn,US,41.82121009,-87.79370886,16004
3199,Corsaros Family Pizza,1456 Draper St,Kingsburg,US,36.515,-119.5518,16338
9961,Carrabba's - The Original on Voss,1399 S Voss Rd.,Houston,US,29.752692,-95.501199,14596
5849,Joe's Pizza,3009a Middletown Rd,Bronx,US,40.843982000000004,-73.830015,19704
418,Ians Pizza by the Slice,319 N Frances St,Madison,US,43.072948,-89.395637,13065
3957,Santullos Eatery,1943 W North Ave,Chicago,US,41.9105,-87.676736,16344
2389,North Italia,1700 Post Oak Blvd Ste 190,Houston,US,29.748548,-95.462154,15400
2952,Alphonsos,1119 S 108th St,Milwaukee,US,43.019495,-88.047506,12040
8429,Vintage Pizzeria,5434 Peachtree Rd,Atlanta,US,33.89318,-84.29999000000001,10873
3881,Castor Pizza,6038 Castor Ave,Philadelphia,US,40.035227,-75.081675,16966
271,Pronis,5001 Brainerd Rd,Chattanooga,US,35.012252000000004,-85.225615,19503
3376,Pie Hole,44 S Broadway,Denver,US,39.715726000000004,-104.98718799999999,10847
9867,Pie Restaurant,214 N Lombardy St,Richmond,US,37.550470000000004,-77.45936,11075
5177,Saint Pizza Lounge,3817 SE Gladstone St,Portland,US,45.493479,-122.62343899999999,19089
4049,Lillys,810 W Peabody St,Durham,US,35.999083,-78.90945,15658
2618,Little Caesars,1800 Western Ave,Guilderland,US,42.689863,-73.865641,16683
1554,Colasessanos,6120 Mid Atlantic Dr,Morgantown,US,39.647892,-79.89107,14051
281,Pizza On Dubuque,5 S Dubuque St,Iowa City,US,41.660914,-91.533046,18295
2438,Cc's Pizza,75 Main St,Quentin,US,40.2803,-76.4427,10999
2717,Romas Pizza Pasta,1401 S Drake Rd,Kalamazoo,US,42.277333,-85.647949,15981
1539,Toninos Pizza Grille,530 N Progress Ave,Harrisburg,US,40.29822,-76.846435,19570
3903,Boston House of Pizza,208 N 12th Ave,Hanford,US,36.325115000000004,-119.6735,12202
1309,Pizza Petes,528 Columbus Ave,New York,US,40.786196999999994,-73.972401,16227
2908,Joe Cristianos Pizza,1225 Route 9G,Hyde Park,US,41.796857,-73.913841,12139
9752,East Side Pies,5312 Airport Blvd Ste G,Austin,US,30.31478,-97.71514,13019
9829,Nino Pizza,4 E Preston St,Baltimore,US,39.30451699,-76.61592292,10421
9093,Mojo Pizza n' Pub,657 E Lake Dr,Decatur,US,33.75941048,-84.30353696,16542
3155,Numero Uno,17817 Chatsworth St,Granada Hills,US,34.2652,-118.5222,12177
2943,DaVincis Pizzeria,6514 18th Ave,Brooklyn,US,40.618882,-73.990799,17175
565,Sir Nicks Pizza,1441 Palatine Rd,Hoffman Estates,US,42.109722999999995,-88.114846,17420
4490,Union Pizza Company,1570 Rosecrans Ave,Manhattan Beach,US,33.901695000000004,-118.385485,13050
9453,The Upper Crust,97 Sea Island Pkwy,Beaufort,US,32.417544,-80.65629399999999,11727
8320,Sergeant Pepperoni's,4618 Kingston Pike,Knoxville,US,35.9409,-83.98118000000001,18691
8314,Giardini Pizza,363 Smith St,Brooklyn,US,40.6795046,-73.995379,17615
5782,Major League Pizza,2811 Colby Ave,Everett,US,47.97977,-122.20863999999999,14058
2412,Primo Pizza,2810 Raeford Rd,Fayetteville,US,35.0455,-78.9257,11396
1061,360 UNO,3801 N Capital of Texas Hwy,Austin,US,30.336736,-97.803884,16831
1296,The Red Front,71 Division St,Troy,US,42.72616,-73.690946,18678
3594,Addeo's Riverdale Pizzeria,5654 Riverdale Ave,Bronx,US,40.905766,-73.90411,18821
1318,Yolandas Italian Pizzeria Restaurant,292 E 149th St,Bronx,US,40.817098,-73.92186600000001,18898
8390,Toni Pepperoni,4224 Maple Rd,Buffalo,US,42.99236,-78.80467,18462
2210,Petes Pizza,53rd and Haverford,Philadelphia,US,39.964745,-75.224059,12159
7986,Olivetto's,190 New Hyde Park Rd,Franklin Square,US,40.712871,-73.676519,14409
9248,Beggers Pizza,8100 S Stony Island Ave,Chicago,US,41.747840000000004,-87.58587,10897
529,Big Mikes Pizza And Pasta,554 State Route 17M,Monroe,US,41.321164,-74.181577,19534
2386,Pizza Man,3442 Denmark Ave,Saint Paul,US,44.830117,-93.1596,13527
5211,Jack's Pizza,5007 Pacific Coast Hwy,Torrance,US,33.812763000000004,-118.36757800000001,16352
2530,Maldonados Pizzeria,615 S Rengstorff Ave,Mountain View,US,37.396412,-122.10099199999999,10953
2617,Gigios Pizzeria,1603 E Oakton St,Des Plaines,US,42.024142,-87.884326,15055
8236,Green Lantern Pizza,41160 Hayes Rd,Clinton Township,US,42.59836166,-82.97165383,12580
6612,Hana's Pizza,1376 Lexington Ave,New York,US,40.782482,-73.953384,19067
2433,Dare Devil's Pizzeria,1112 S Virginia Dare Trl,Kill Devil Hills,US,36.0059,-75.653,17720
8848,Mike's Pizza Shoppe,1502 W Chester Pike,West Chester,US,39.96567428,-75.52685393,18034
6704,Pomodoro Pizza,14 Rector St,New York,US,40.707994,-74.01364699999999,11534
1131,Panheads Pizza,113 S Orange St,New Smyrna Beach,US,29.023665,-80.925125,16632
2958,Maxwells,1456 Newpark Blvd,Park City,US,40.721687,-111.53848500000001,17986
1447,Wize Guyz Pizzeria,2498 W Brandon Blvd Ste B,Brandon,US,27.942765,-82.324359,10354
6683,Ci Ci's Pizza,1485 GA138 SE,Conyers,US,33.650954,-84.008799,16953
9305,Pasta Mia,325 E State St,South Elgin,US,41.99416655,-88.2905105,11845
5723,Frank's Pizza New York Style,585 S West End Blvd,Quakertown,US,40.428926000000004,-75.34929699999999,15332
8754,Groovy's Pizza,332 Lincoln Rd,Miami Beach,US,25.790684,-80.13141,13334
578,Giorgios Pizzeria and Italian Ristorante,224 Smithtown Blvd,Nesconset,US,40.834299,-73.149858,13122
978,FatBobs Pizza,1739 Pearl Rd,Brunswick,US,41.227416999999996,-81.84092700000001,19146
2529,Mancinos Pizza Grinders,1791 Columbia Ave W,Battle Creek,US,42.2968,-85.234726,13560
1561,DEES,107-23 Metropolitan Ave,Forest Hills,US,40.709643,-73.845343,15148
1762,Stuft Pizza Brewing,24821 Del Prado,Dana Point,US,33.46645,-117.697557,11070
2659,Olde Towne Pizza,118 NW Greenwood Ave,Bend,US,44.0601,-121.3092,14379
1789,Gina Marias Pizzaria,1525 N Placentia Ave Unit C-D,Placentia,US,33.891359,-117.87425900000001,10032
7683,The Happy Camper,1209 N Wells St,Chicago,US,41.904234,-87.63430699999999,18507
9168,Pinks Pizza,4701 Calhoun Rd,Houston,US,29.722603000000003,-95.33720799999999,15851
5714,Pizza Getti,3320 N Buckner Blvd,Dallas,US,32.805307,-96.682202,14963
7746,Pat's Pizza Family Restaurant (Pat'sPFR),40 Marrows Rd,Newark,US,39.66441453,-75.72714048,11443
9277,Salvatore's Old Fashioned Pizzeria,55 S Main St,Fairport,US,43.10002674,-77.44177696,18872
106,DoubleDaves PizzaWorks,4001 John Knox Dr,Abilene,US,32.403556,-99.767292,10381
3529,West Coast Pizza,1706 University Ave,Berkeley,US,37.870827,-122.277229,13923
1051,Capers Pizza Bar,2038 S Byrne Rd,Toledo,US,41.601237,-83.62574000000001,18687
2881,The Wild Tomato Pizzeria,4315 Jonestown Rd,Harrisburg,US,40.29908,-76.81952199999999,15727
3251,Bernie O's Pizza,321 Center St,Muskegon,US,43.2626,-86.2624,14651
566,Als Pizza Subs,407 N Enola Rd,Enola,US,40.299281,-76.929266,14040
3921,Two Boots West Village,201 W 11th Street,New York,US,40.736529,-74.00122900000001,11139
8451,Bella Italia Pizzeria,12 E Lancaster Ave,Ardmore,US,40.007348,-75.29039499999999,17760
6990,Pudgy's Pizzeria,16919 Audrey St,Omaha,US,41.18923,-96.179548,10336
349,Obies Pizza,2217 Elliston Pl,Nashville,US,36.151253999999994,-86.804068,16416
297,Key Pizza,1846 S 12th St,Philadelphia,US,39.926386,-75.165476,13215
270,Ball Park Pizza,30120 Town Center Dr,Laguna Niguel,US,33.525715999999996,-117.713851,13683
9381,Joe Friday's Brick Oven Pizza,101 Newnan Crossing Byp,Newnan,US,33.393151,-84.76058485,16294
5592,Spot A Pizza Place,115 Hamilton Ave,Palo Alto,US,37.443118,-122.16253600000002,10071
660,Thr3e Wise Men Brewing Co,1021 Broad Ripple Ave,Indianapolis,US,39.869578999999995,-86.14070799999999,18422
2642,Napoli Pizza,934 E Passyunk Ave,Philadelphia,US,39.937084000000006,-75.154864,19815
695,Drexel Pizza,107 N 33rd St,Philadelphia,US,39.958008,-75.18910600000001,19008
3503,Teak & Charlie's Jersey Girl Pizza,4007 John Ben Shepperd Pkwy,Odessa,US,31.8897,-102.3328,14344
2663,Pastafina Pizza,388 3rd Ave,New York,US,40.7419,-73.9812,18055
1767,DaVincis Pizza,118 Long Beach Rd,Island Park,US,40.600986,-73.65616999999999,12796
9368,Michelangelo's Pizza,928 US 64 Hwy W,Apex,US,35.74395,-78.82212,13849
2,Mios Pizzeria,3703 Paxton Ave,Cincinnati,US,39.144883,-84.43268499999999,18606
491,Larrys Pizza Conway,1068 Markham St,Conway,US,35.092948,-92.439413,12109
3500,Papa Pete's Pizza,5614 Ocean Beach Hwy,Longview,US,46.172,-123.0163,19115
3418,Crispy pizza cafe,114 7th Ave,New York,US,40.740404999999996,-73.998386,16017
7827,Stacia's Gourmet Pizza and Pasta,305 NW 85th St,Seattle,US,47.69063,-122.36106000000001,14318
3477,Big Mario's (Queen Anne),815 5th Ave N,Seattle,US,47.626822,-122.34773799999999,12643
5601,Krispy Pizza - Brooklyn,7112 13th Ave,Brooklyn,US,40.62231,-74.005429,17974
7132,Bella Mia,4900 Waterloo Rd,Ellicott City,US,39.236139,-76.798705,13767
4822,New York New York,1512 E 7th Ave,Tampa,US,27.960247,-82.442426,18520
2437,Satellite Pizza,799 Montauk Hwy,Bayport,US,40.7472,-73.05199999999999,10855
1786,Sam & Louie's Pizzeria,1313 W 3rd St,Alliance,US,42.0968,-102.89,17710
2942,Guidos,549 W Intl Airport Rd,Anchorage,US,61.174665000000005,-149.894053,11888
8286,Pizzeria La Gitana,309 E Yelm Ave,Yelm,US,46.93996774,-122.60357979999999,10051
3931,Blind Onion Pizza Pub,824 Victorian Ave,Sparks,US,39.535018,-119.75381200000001,13591
2489,Black Bird Pizza,1935 SE Hawthorne Blvd,Portland,US,45.5123,-122.6462,14620
659,Pepicellis,208 S Washington Hwy,Ashland,US,37.755604999999996,-77.471636,19058
6162,Red Brick Pizza,140 Crescent Dr,Pleasant Hill,US,37.9445,-122.06176799999999,16042
3320,New York pizza,10433 County Rd.39S,Lithia,US,27.850721000000004,-82.146012,13300
8675,Alger's Pizza Palace,106 1st St SW,Mount Vernon,US,41.9222,-91.4171,16266
9904,County Line Pizza & Side Walk Cafe,433 Page Bacon Rd,Mary Esther,US,30.41922955,-86.65411528,19453
819,Dough Boys Pizza,529 2nd St,Hudson,US,44.975726,-92.757675,11678
3247,Mac Kenzie River Pizza Co,405 W Canfield Ave,Coeur d'Alene,US,47.7335,-116.7935,18189
1588,Stavros Pizza,800 N Dixie Fwy,New Smyrna Beach,US,29.036179999999998,-80.93236,10099
9799,Joey Pepperoni's Pizza,493 2nd Ave,New York,US,40.740990000000004,-73.97904,16097
3513,Macon Pizza Company,5978 Zebulon Rd,Macon,US,32.8798,-83.7563,13524
8306,Mancino's Pizza,37632 Ford Rd,Westland,US,42.323948,-83.41109,10188
3690,New Station Pizza,15 S Broad St,Lansdale,US,40.24091,-75.28396,17365
1547,McClains Pizzeria,115 Girod St,Mandeville,US,30.353132000000002,-90.068345,10404
2076,Roc-a-Fellas,11055 Reading Rd,Cincinnati,US,39.2694,-84.4134,14773
796,Tonino Pizzeria Contorni,238 Saw Mill River Rd,Millwood,US,41.188390000000005,-73.802983,16870
9478,Franks Original Pizza Italia,768 Castle Hill Ave,Bronx,US,40.8227786,-73.84894464,15328
8313,Kelsey's Pizzeria,2845 Garden St,Titusville,US,28.614673,-80.83837978,19370
1838,Luckys Pizza,12455 W Bell Rd.,Surprise,US,33.640448,-112.39452800000001,10964
6826,Smith Brothers Pizza,790 Center St,Lewiston,US,43.172767,-79.036084,10810
7761,Cusato's Pizzeria & Deli,1600 Altamont Ave,Schenectady,US,42.782955,-73.94911,19110
3596,Cugini's Pizza,360 W Schick Rd,Bloomingdale,US,41.95297,-88.109796,12180
1420,Giant Pizza King,3638 El Cajon Blvd,San Diego,US,32.755573999999996,-117.114869,18846
2533,Pitfire Pizza,12924 Washington Blvd,Los Angeles,US,33.994877,-118.43868799999998,11567
3510,Potomac Pizza,9812 Falls Rd,Potomac,US,39.0171,-77.2106,18711
272,Joe Squared Pizza Bar,33 W North Ave,Baltimore,US,39.310817,-76.618073,17305
1185,Pizza Gyro Express,11232 McKee Rd,Irwin,US,40.316689000000004,-79.731172,18972
1790,Bill Bobes Pizzeria,1651 N 6th St,Vincennes,US,38.68512,-87.5134,12415
3607,Pizza Place California,303 S Mission Dr,San Gabriel,US,34.098306,-118.109523,16760
7988,Milos Ristorante,2162 Merrick Mall,Merrick,US,40.66634518,-73.55124868,11620
8932,Sopranos Pizza,5169 N Jupiter Rd,Richardson,US,32.96285649,-96.68232679,13887
3106,Mr Pizza North,4040 28TH St NW,Rochester,US,44.053000000000004,-92.5239,17979
7109,The Big Slice - 5th Ave,146 5th Ave,New York,US,40.739318,-73.991254,18060
284,Slice of the 80s,34747 Warren Rd,Westland,US,42.338678,-83.384055,12846
2550,the pizza factory,725 W 1700 S,Syracuse,US,41.088884,-112.039736,12816
584,Allens Stone Baked Pizza,115 Margie Dr Ste A,Warner Robins,US,32.621373,-83.690373,17486
162,Alex DiPeppes,140-142 Las Tunas Dr,Arcadia,US,34.107566999999996,-118.03618200000001,13755
8827,Barnaby's - The Family Inn,960 Skokie Blvd,Northbrook,US,42.13493101,-87.79020786,13436
3893,I Love Pizza,7105 Collins Ave,Miami Beach,US,25.856428,-80.120492,16769
7142,Donte's Pizza,6409 Brownsville Rd,Pittsburgh,US,40.360478,-79.99083399999999,11192
1226,Avellinos,775 Goodman Rd E,Southaven,US,34.961509,-89.974807,11239
5653,Pompei,1531 W Taylor St,Chicago,US,41.869288,-87.664751,13144
4035,Big Apple,2950 9th St SW,Vero Beach,US,27.58813,-80.41601,10470
285,Vicinato Pizzeria,5080 Mayfield Rd,Cleveland,US,41.519391999999996,-81.496914,15610
670,Ninos Pasta Pizza,2800 Forestwood Dr,Arlington,US,32.785203,-97.065359,13045
389,Traversos Pizza Restaurant,15601 S Harlem Ave,Orland Park,US,41.608957000000004,-87.793849,19485
9330,Bertolo's Pizza,120 Highway 14 Ste D,Simpsonville,US,34.75631,-82.26725,14787
3605,Lamonica's New York Pizza,1066 Gayley Ave,Los Angeles,US,34.060987,-118.44693899999999,11536
8664,Luigi's Pizza & Pasta,3005 Mount Carmel Ave,Glenside,US,40.11312,-75.16852,17244
19,Mikes Pizza,4111 Main St,Philadelphia,US,40.022413,-75.218579,14024
9683,brooklyn pizza,501 Court,Fulton,US,38.847474,-91.948111,10955
438,Lonnies Pizzeria,8343 W Irving Park Rd,Chicago,US,41.951933000000004,-87.836669,14227
8228,George's Pizza,2920 E Florida Ave,Hemet,US,33.74835837,-116.9407568,13982
8674,Domani Pizzeria And Restaurant,1515 Queen Anne Ave N,Seattle,US,47.6324,-122.35700000000001,17117
7927,D'Vinci's,540 S Elm St,Waconia,US,44.84391,-93.78664,12318
638,Pantanos,3535 Merrick Rd,Seaford,US,40.665468,-73.500011,11784
8682,Bassano's Pizzeria,10970 State Bridge Rd,Alpharetta,US,34.047909999999995,-84.22408,13528
8386,Baci Pizza & Subs,760 Barnes Blvd,Rockledge,US,28.29561433,-80.73700190000001,11655
3509,Casey's Carry Out Pizza,1520 N Main St,Maryville,US,40.3593,-94.8731,14986
2826,Dinos Pizza and Pasta,4455 Highway 49 S,Harrisburg,US,35.321538000000004,-80.651424,19102
4464,Chuck E. Cheese's,14637 Memorial Dr,Houston,US,29.770062,-95.60798100000001,15474
9567,Conans Pizza North,2438 W Anderson Ln,Austin,US,30.357193699999996,-97.73145676,17424
4109,Pizza Maria,302 Toyon Ave,San Jose,US,37.381417,-121.825994,13863
4590,Rennas Pizza,840 Nautica Dr,Jacksonville,US,30.480182,-81.63851700000001,13373
99,Wildwood Pizza,1260 Texas Ave Ste H,Alexandria,US,31.288586,-92.47294000000001,19628
7992,Faro's New York style pizza,395 S Main St,Canandaigua,US,42.882185,-77.276833,12191
1574,SPIN Neapolitan Pizza,9474 Renner Blvd,Lenexa,US,38.957162,-94.78054499999999,10953
818,JJ Twigs Pizza Pub,1200 N Old Rand Rd,Wauconda,US,42.277924,-88.149651,16025
9094,Mario's NY Style Pizzeria,3350 E 51st St,Tulsa,US,36.088642,-95.93723,16215
9397,Mineo's Pizza,2128 Murray Ave,Pittsburgh,US,40.4328891,-79.9231777,19908
2937,Rosangelas Pizza,2807 W 95th St,Evergreen Park,US,41.720755,-87.69255799999999,13460
8136,Cosimos Restaurant & Bar,100 Route 32,Central Valley,US,41.32077786,-74.12579386,12533
9180,Brother's Pizza,9719 Mills Rd,Houston,US,29.9588,-95.5647,17993
3415,Coney Island Pizzeria,14034 Poway Rd,Poway,US,32.95677,-117.026954,19091
8885,Geno's Sports Bar & Grill,3035 NE Kane Dr,Gresham,US,45.51822925,-122.3988054,11370
6883,Frank's Pizza Palace,816 W College Ave,Appleton,US,44.261846999999996,-88.418477,11137
3419,Brick Oven Pizza Co Tiger Town,2520 Enterprise Dr,Opelika,US,32.619521,-85.41062099999999,11355
3592,Nona's Pizza,6100 Riverdale Ave,Bronx,US,40.910131,-73.902837,13627
2391,Mt Gretna Pizzeria,117 Timber Rd,Mount Gretna,US,40.249,-76.4709,15639
3606,Pizza Store,2091 E Orangethorpe Ave,Placentia,US,33.866934,-117.81888400000001,11419
7987,Pietro's Pizza,476 E Meadow Ave,East Meadow,US,40.712326000000004,-73.557532,14779
9511,Papa's Pub & Pizzaria,508 Garrison Ave,Fort Smith,US,35.38754068,-94.42610928,13445
1443,Beach Bella Pizza,616 Virginia Beach Blvd,Virginia Beach,US,36.844691,-75.982375,11637
1710,Marconi Pizzeria,181 E Gun Hill Rd,Bronx,US,40.880765999999994,-73.877808,15665
642,Pupatella Neapolitan Pizza,5104 Wilson Blvd,Arlington,US,38.877608,-77.122194,12951
3219,Pi Pizza,3932 Marketplace Dr Nw,Rochester,US,44.0636,-92.5016,17994
350,Mountain Mikes Pizza,4141 Manzanita Ave,Carmichael,US,38.640665999999996,-121.32828700000002,15148
